City_ID,City,Lat,Lng,Max Temp,Humidity,Cloudiness,Wind Speed,Country,Date
0,blackmans bay,-43.0167,147.3167,8.74,74,71,3.52,AU,1692741265
1,jabat,7.75,168.9751,29.01,71,83,4.22,MH,1692741266
2,waitangi,-43.9535,-176.5597,10.46,78,89,3.58,NZ,1692741266
3,pacific grove,36.6177,-121.9166,27.16,75,0,5.14,US,1692741268
4,ust-nera,64.5667,143.2,6.18,98,100,2.04,RU,1692741269
5,hermanus,-34.4187,19.2345,11.56,77,100,10.26,ZA,1692741269
6,lompoc,34.6391,-120.4579,30.08,70,0,5.66,US,1692741270
7,ola,59.5833,151.2833,14.66,67,51,3.62,RU,1692741271
8,crane,31.3974,-102.3501,34.43,26,100,4.39,US,1692741271
9,grytviken,-54.2811,-36.5092,-1.06,97,99,5.76,GS,1692741272
10,rockingham,42.9668,-71.0995,26.38,51,34,0.89,US,1692741272
11,haiku-pauwela,20.9219,-156.3051,31.01,45,20,9.26,US,1692741274
12,papatowai,-46.5619,169.4708,10.16,68,94,2.02,NZ,1692741274
13,sisimiut,66.9395,-53.6735,11.86,80,90,2.72,GL,1692741122
14,belmonte,-15.8631,-38.8828,24.42,88,14,5.2,BR,1692741275
15,yemva,62.59,50.8594,6.53,96,100,2.56,RU,1692741276
16,newman,37.3138,-121.0208,33.34,10,1,1.5,US,1692741276
17,new norfolk,-42.7826,147.0587,9.4,74,60,2.95,AU,1692741277
18,edinburgh of the seven seas,-37.0676,-12.3116,12.96,93,100,12.1,SH,1692741277
19,vorgashor,67.5833,63.95,7.98,84,100,2.73,RU,1692741278
20,port-aux-francais,-49.35,70.2167,1.29,72,90,6.38,TF,1692741279
21,ushuaia,-54.8,-68.3,2.81,93,75,9.26,AR,1692741083
22,ta`u,-14.2336,-169.5144,26.1,69,16,7.2,AS,1692741281
23,fenoarivo atsinanana,-17.3667,49.4167,19.98,87,26,1.84,MG,1692741282
24,labytnangi,66.6572,66.4183,9.94,83,100,3.76,RU,1692741282
25,tiksi,71.6872,128.8694,3.52,89,100,2.39,RU,1692741284
26,la passe,45.5549,-0.8967,28.13,63,15,2.82,FR,1692741285
27,albany,42.6001,-73.9662,25.81,53,13,2.16,US,1692741032
28,west island,-12.1568,96.8225,24.99,83,75,5.66,CC,1692741286
29,tsiombe,-25.3,45.4833,22.12,66,0,3.32,MG,1692741287
30,ngerengere,-6.75,38.1167,20.74,83,0,0.52,TZ,1692741287
31,puerto natales,-51.7236,-72.4875,2.19,85,100,3.67,CL,1692741288
32,jamestown,42.097,-79.2353,23.9,49,0,3.09,US,1692741087
33,iqaluit,63.7506,-68.5145,10.85,71,75,10.8,CA,1692741290
34,yulinshi,38.2906,109.7494,19.67,54,100,1.61,CN,1692741290
35,hithadhoo,-0.6,73.0833,27.78,75,97,5.91,MV,1692741291
36,bethel,41.3712,-73.414,26.08,56,0,5.14,US,1692741291
37,adamstown,-25.066,-130.1015,19.26,63,100,13.0,PN,1692741293
38,olonkinbyen,70.9221,-8.7187,5.57,94,83,1.53,SJ,1692741293
39,invercargill,-46.4,168.35,8.9,84,99,0.45,NZ,1692741042
40,codrington,-38.2667,141.9667,9.61,87,100,4.26,AU,1692741294
41,tidjikja,18.5564,-11.4271,35.49,28,25,1.87,MR,1692741295
42,n'zeto,-7.2312,12.8666,21.7,94,22,2.46,AO,1692741295
43,baglung,28.2719,83.5898,21.62,99,100,0.67,NP,1692741296
44,sirnach,47.4622,8.9976,25.12,87,65,1.44,CH,1692741298
45,kalevala,65.2,31.1667,10.71,80,100,1.83,RU,1692741299
46,tsetserleg,47.475,101.4542,5.72,90,67,0.78,MN,1692741299
47,carutapera,-1.195,-46.02,25.68,73,40,3.88,BR,1692741300
48,lesosibirsk,58.2358,92.4828,14.26,93,100,1.61,RU,1692741302
49,parabel',58.6978,81.4825,11.75,96,99,2.16,RU,1692741304
50,pitea,65.3172,21.4794,15.05,94,100,3.13,SE,1692741304
51,turkmenbasy,40.0222,52.9552,22.43,40,0,0.0,TM,1692741305
52,bilibino,68.0546,166.4372,5.73,65,97,0.42,RU,1692741306
53,tazovsky,67.4667,78.7,8.53,94,100,3.02,RU,1692741307
54,avarua,-21.2078,-159.775,25.03,65,75,6.69,CK,1692741307
55,barra da estiva,-13.6261,-41.3269,21.56,64,71,2.75,BR,1692741308
56,razole,16.4833,81.8333,26.48,88,99,1.91,IN,1692741309
57,margaret river,-33.95,115.0667,13.26,72,98,3.8,AU,1692741310
58,kidal,18.4411,1.4078,33.25,33,63,5.26,ML,1692741312
59,port elizabeth,-33.918,25.5701,14.16,58,0,4.63,ZA,1692741312
60,dudinka,69.4058,86.1778,11.46,91,86,3.08,RU,1692741314
61,arkhangel'sk,64.5401,40.5433,4.9,95,21,1.72,RU,1692741315
62,kodiak,57.79,-152.4072,13.73,88,100,2.06,US,1692741317
63,tahe,52.3333,124.7333,12.2,96,100,1.43,CN,1692741318
64,port lincoln,-34.7333,135.8667,12.19,72,100,3.77,AU,1692741318
65,hamilton,39.1834,-84.5333,33.45,49,0,3.6,US,1692741296
66,alto araguaia,-17.3147,-53.2153,28.46,26,7,1.53,BR,1692741320
67,hawaiian paradise park,19.5933,-154.9731,27.63,84,100,5.66,US,1692741320
68,warwick,41.7001,-71.4162,26.15,49,40,5.14,US,1692741040
69,georgetown,5.4112,100.3354,26.96,95,20,2.06,MY,1692741316
70,paradip garh,20.3167,86.6167,28.07,86,100,5.47,IN,1692741322
71,zelenogorsk,56.1147,94.5861,12.73,92,12,0.96,RU,1692741322
72,okha,53.5739,142.9478,16.65,91,100,2.23,RU,1692741323
73,rundu,-17.9333,19.7667,19.84,15,77,1.82,NA,1692741323
74,peace river,56.2501,-117.286,22.17,64,40,1.54,CA,1692741324
75,touros,-5.1989,-35.4608,24.83,80,10,5.6,BR,1692741244
76,port alfred,-33.5906,26.891,16.95,47,44,4.46,ZA,1692741325
77,kokopo,-4.352,152.2633,26.6,78,83,4.75,PG,1692741326
78,puerto ayora,-0.7393,-90.3518,27.98,93,80,2.24,EC,1692741327
79,lerwick,60.1545,-1.1494,13.0,90,100,7.37,GB,1692741327
80,stanley,54.868,-1.6985,15.44,87,0,2.57,GB,1692741192
81,fortaleza,-3.7227,-38.5247,27.34,78,40,5.14,BR,1692741328
82,ilulissat,69.2167,-51.1,13.01,47,40,1.54,GL,1692741329
83,nova sintra,14.8667,-24.7167,24.95,75,76,1.49,CV,1692741330
84,isafjordur,66.0755,-23.124,10.29,78,64,2.12,IS,1692741330
85,severo-yeniseyskiy,60.3725,93.0408,10.75,89,100,1.95,RU,1692741331
86,sol'-iletsk,51.1631,54.9918,18.7,81,12,4.5,RU,1692741332
87,lihue,21.9789,-159.3672,30.77,69,75,6.17,US,1692741332
88,bourg-saint-maurice,45.6172,6.769,23.94,72,3,1.17,FR,1692741333
89,ghat,24.9647,10.1728,35.04,15,91,5.62,LY,1692741333
90,zyryanskoye,56.8306,86.6258,11.77,87,50,2.61,RU,1692741334
91,college,64.8569,-147.8028,16.71,74,100,3.09,US,1692741056
92,cabo san lucas,22.8909,-109.9124,34.23,70,69,2.56,MX,1692741145
93,i-n-salah,27.1935,2.4607,33.49,26,41,4.83,DZ,1692741336
94,whitehorse,60.7161,-135.0538,22.28,48,20,2.57,CA,1692741337
95,armacao de buzios,-22.7469,-41.8817,22.09,92,0,3.88,BR,1692741338
96,taksimo,56.3444,114.8794,12.2,73,25,1.52,RU,1692741339
97,uzgen,40.7699,73.3007,20.16,28,7,3.12,KG,1692741339
98,pemba,-12.974,40.5178,24.39,83,20,3.6,MZ,1692741340
99,mount isa,-20.7333,139.5,15.87,31,0,4.63,AU,1692741341
100,tubarjal,30.4999,38.216,34.7,17,11,3.46,SA,1692741341
101,maragogi,-9.0122,-35.2225,24.17,83,37,3.61,BR,1692741342
102,punta arenas,-53.15,-70.9167,1.68,71,83,6.57,CL,1692741149
103,quatre cocos,-20.2078,57.7625,22.83,83,62,7.12,MU,1692741343
104,verdal,63.7933,11.4817,12.02,93,35,0.34,NO,1692741344
105,bagli,22.65,76.35,22.24,93,100,3.08,IN,1692741345
106,bida,9.0833,6.0167,26.55,80,99,1.69,NG,1692741346
107,cole harbour,44.6724,-63.4751,22.71,56,30,3.58,CA,1692741347
108,guerrero negro,27.9769,-114.0611,24.19,64,7,7.26,MX,1692741348
109,talnakh,69.4865,88.3972,11.23,93,81,2.54,RU,1692741349
110,turaif,31.6725,38.6637,31.14,10,20,4.12,SA,1692741349
111,galliano,29.4422,-90.2992,35.0,51,54,6.14,US,1692741350
112,san antonio de pale,-1.4014,5.6325,23.21,89,15,5.87,GQ,1692741351
113,san patricio,28.017,-97.5169,29.94,82,100,9.34,US,1692741351
114,trairi,-3.2778,-39.2689,25.28,78,25,5.04,BR,1692741352
115,yellowknife,62.456,-114.3525,20.23,69,75,2.24,CA,1692741352
116,xixiang,35.1628,112.865,23.72,88,33,1.49,CN,1692741354
117,lebu,-37.6167,-73.65,9.64,83,38,3.94,CL,1692741354
118,inhambane,-23.865,35.3833,21.62,89,0,6.79,MZ,1692741355
119,pangoa,-12.1167,-73.0,29.48,50,93,1.33,PE,1692741356
120,twon-brass,4.3151,6.2418,25.59,88,100,4.51,NG,1692741358
121,pikine,14.75,-17.4,28.05,78,20,4.12,SN,1692741359
122,matoury,4.8483,-52.3317,28.98,74,0,4.63,GF,1692741359
123,la sarre,48.8002,-79.1996,19.38,59,100,1.66,CA,1692741229
124,el galpon,-25.3807,-64.6526,30.9,15,99,2.52,AR,1692741361
125,gubkin,51.2817,37.5458,15.47,90,35,3.1,RU,1692741362
126,vila franca do campo,37.7167,-25.4333,21.23,70,73,3.34,PT,1692741362
127,gilgit,35.9221,74.3087,27.85,55,1,1.84,PK,1692741363
128,wailua homesteads,22.0669,-159.378,30.44,76,75,6.17,US,1692741364
129,ingeniero jacobacci,-41.3427,-69.5448,3.29,60,11,8.76,AR,1692741314
130,kuanda,56.3161,116.0806,12.38,79,44,0.82,RU,1692741365
131,saipan,15.1355,145.701,28.69,100,40,2.06,MP,1692741366
132,terrace,54.5163,-128.6035,24.95,41,20,0.0,CA,1692741366
133,stettler,52.3168,-112.7186,17.86,82,91,2.06,CA,1692741367
134,jinghong,21.991,100.7341,21.91,98,98,0.34,CN,1692741367
135,ambon,-3.6954,128.1814,25.49,95,94,5.84,ID,1692741368
136,lavaur,43.6985,1.8186,31.03,52,100,0.93,FR,1692741369
137,el alto,-4.2714,-81.2147,25.81,78,83,6.7,PE,1692741370
138,siwa oasis,29.2041,25.5195,30.9,36,0,4.83,EG,1692741371
139,sainyabuli,19.25,101.75,22.47,99,100,0.74,LA,1692741371
140,petropavlovsk-kamchatsky,53.0452,158.6483,14.33,100,75,2.0,RU,1692741372
141,san matias,-16.3667,-58.4,34.38,19,10,2.77,BO,1692741373
142,constitucion,-35.3333,-72.4167,11.36,90,100,3.3,CL,1692741374
143,nyirbator,47.8333,22.1333,24.72,55,2,2.4,HU,1692741374
144,ciudad guadalupe victoria,24.4497,-104.1225,22.66,43,93,8.05,MX,1692741375
145,mongoumba,3.6415,18.5936,23.95,83,40,0.54,CF,1692741375
146,alice springs,-23.7,133.8833,12.9,53,0,25.48,AU,1692741293
147,kanniyakumari,8.0833,77.5667,26.92,81,65,7.23,IN,1692741377
148,sao vicente,-23.9631,-46.3919,33.1,78,0,1.03,BR,1692741377
149,bredasdorp,-34.5322,20.0403,11.39,84,100,9.0,ZA,1692741378
150,nurota,40.5614,65.6886,25.7,29,0,2.58,UZ,1692741380
151,lionel town,17.8101,-77.2406,30.94,53,43,0.69,JM,1692741383
152,kingston,17.997,-76.7936,32.36,70,20,3.09,JM,1692741182
153,queenstown,-31.8976,26.8753,12.46,31,7,5.41,ZA,1692741386
154,marine corps base hawaii - mcbh,21.4453,-157.7513,31.98,62,20,5.14,US,1692741386
155,turtas,58.9417,69.1325,7.26,80,86,2.18,RU,1692741388
156,saudarkrokur,65.7461,-19.6394,7.44,94,91,1.2,IS,1692741388
157,carlisle,40.2015,-77.1889,27.23,44,98,1.34,US,1692741389
158,klyuchi,52.2667,79.1667,18.79,68,52,2.53,RU,1692741390
159,nemuro,43.3236,145.575,20.08,99,100,5.01,JP,1692741390
160,port macquarie,-31.4333,152.9167,18.09,51,4,2.89,AU,1692741393
161,coquimbo,-29.9533,-71.3436,16.54,67,0,0.83,CL,1692741393
162,luderitz,-26.6481,15.1594,13.39,81,1,4.54,NA,1692741394
163,holly springs,35.6513,-78.8336,34.38,55,99,0.89,US,1692741395
164,aldan,58.6031,125.3894,9.89,81,62,0.96,RU,1692741396
165,fort leonard wood,37.7057,-92.1572,36.25,58,20,1.54,US,1692741397
166,yangquan,37.8575,113.5633,19.21,81,74,1.13,CN,1692741397
167,pandan,14.0453,124.1694,27.02,80,99,2.27,PH,1692741398
168,petrov val,50.1434,45.2096,16.88,61,54,2.83,RU,1692741399
169,kiunga,-6.1219,141.2906,22.71,97,99,1.44,PG,1692741399
170,cobija,-11.0267,-68.7692,36.1,44,20,2.57,BO,1692741400
171,ketchikan,55.3422,-131.6461,20.26,64,0,1.54,US,1692741400
172,castillos,-34.1667,-53.8333,10.62,91,100,3.22,UY,1692741401
173,kotlas,61.2611,46.6556,4.4,97,7,2.03,RU,1692741401
174,ancud,-41.8697,-73.8203,7.27,76,100,6.0,CL,1692741402
175,jaciara,-15.9653,-54.9683,31.66,23,11,1.68,BR,1692741403
176,egilsstadir,65.2653,-14.3948,8.95,93,100,3.6,IS,1692741404
177,carai,-17.1889,-41.6947,23.14,56,43,1.73,BR,1692741404
178,marsh harbour,26.5412,-77.0636,28.97,72,4,6.63,BS,1692741405
179,alofi,-19.0595,-169.9187,21.94,94,75,6.17,NU,1692741406
180,westport,41.1415,-73.3579,26.9,46,0,7.72,US,1692741314
181,tyukalinsk,55.8732,72.1967,11.85,63,99,0.25,RU,1692741408
182,conception bay south,47.4999,-52.9981,17.63,96,100,2.68,CA,1692741409
183,olinda,-8.0089,-34.8553,26.85,74,20,3.09,BR,1692741185
184,timimoun,29.2639,0.231,36.21,14,0,3.6,DZ,1692741411
185,juneau,58.3019,-134.4197,19.0,83,0,4.12,US,1692741412
186,enewetak,11.3474,162.3373,29.13,75,63,7.09,MH,1692741413
187,kapuskasing,49.4169,-82.4331,23.05,56,100,4.12,CA,1692741414
188,aasiaat,68.7098,-52.8699,5.71,77,32,3.62,GL,1692741415
189,uturoa,-16.7333,-151.4333,24.5,60,1,4.41,PF,1692741416
190,vilyuchinsk,52.9306,158.4028,15.15,76,100,1.69,RU,1692741417
191,kandalaksha,67.162,32.4123,7.17,91,100,1.34,RU,1692741418
192,tsawwassen,49.018,-123.0817,22.6,60,2,6.17,CA,1692741419
193,doume,4.2333,13.45,20.57,98,99,0.88,CM,1692741420
194,constantia,44.1833,28.65,24.38,66,0,2.52,RO,1692741420
195,inirida,3.8653,-67.9239,29.94,64,49,0.93,CO,1692741421
196,sittwe,20.15,92.9,26.58,84,100,1.36,MM,1692741422
197,ixtapa,20.7,-105.2,32.35,71,82,2.68,MX,1692741423
198,norrtalje,59.758,18.705,14.48,96,76,1.88,SE,1692741426
199,kone,-21.0595,164.8658,22.05,59,4,2.28,NC,1692741427
200,ribeira grande,38.5167,-28.7,21.54,73,100,3.58,PT,1692741427
201,selfoss,63.9331,-20.9971,13.36,74,46,2.59,IS,1692741429
202,tozeur,33.9197,8.1335,24.22,83,75,4.63,TN,1692741429
203,rafsanjan,30.4067,55.9939,27.54,15,0,1.59,IR,1692741430
204,keflavik,64.0049,-22.5624,13.95,82,0,6.69,IS,1692741432
205,kruisfontein,-34.0033,24.7314,13.78,78,0,8.09,ZA,1692741433
206,alesund,62.4723,6.1549,17.64,93,20,1.54,NO,1692741434
207,kapiri mposhi,-13.9652,28.6809,18.76,34,0,2.54,ZM,1692741435
208,annau,37.8876,58.516,27.72,28,0,1.03,TM,1692741435
209,iskateley,67.6803,53.1512,7.85,92,87,4.76,RU,1692741437
210,island harbour,50.724,-1.2758,17.77,89,42,0.89,GB,1692741438
211,tura,25.5198,90.2201,22.59,99,100,3.1,IN,1692741440
212,shingu,33.7333,135.9833,26.43,92,31,2.15,JP,1692741440
213,rio preto da eva,-2.6994,-59.6997,32.29,34,83,0.48,BR,1692741442
214,polyarnyy,69.1989,33.4478,8.5,88,100,0.88,RU,1692741446
215,kharovsk,59.9642,40.1912,8.03,74,91,1.57,RU,1692741447
216,dunedin,-45.8742,170.5036,9.33,63,98,1.79,NZ,1692741448
217,bay city,43.5945,-83.8889,24.67,59,100,3.09,US,1692741449
218,aykhal,66.0,111.5,3.12,82,7,0.92,RU,1692741450
219,carnarvon,-24.8667,113.6333,16.47,72,0,8.69,AU,1692741450
220,tabou,4.423,-7.3528,24.68,90,86,4.09,CI,1692741451
221,mejit,10.2753,170.8646,28.22,78,63,7.06,MH,1692741452
222,colonia,50.9333,6.95,19.97,81,0,2.06,DE,1692741346
223,lodja,-3.4833,23.4333,23.7,65,93,0.95,CD,1692741454
224,estrela,-28.0611,-50.9383,19.79,78,0,4.34,BR,1692741454
225,guadix,37.2993,-3.1392,27.29,28,0,3.25,ES,1692741455
226,ghanzi,-21.5667,21.7833,20.1,13,1,1.65,BW,1692741456
227,bonthe,7.5264,-12.505,25.39,89,100,3.28,SL,1692741456
228,port-vila,-17.7338,168.3219,21.78,83,100,3.6,VU,1692741458
229,geraldton,-28.7667,114.6,5.23,93,0,3.09,AU,1692741458
230,pontes e lacerda,-15.2261,-59.3353,31.89,23,10,1.85,BR,1692741459
231,lazaro cardenas,17.9583,-102.2,30.25,73,4,4.75,MX,1692741460
232,tadine,-21.55,167.8833,20.5,66,98,6.39,NC,1692741461
233,road town,18.4167,-64.6167,28.05,83,75,3.09,VG,1692741462
234,nieuw amsterdam,5.8833,-55.0833,33.09,66,20,2.57,SR,1692741463
235,papao,-17.75,-149.55,25.82,64,0,3.76,PF,1692741464
236,mpika,-11.8343,31.4529,17.47,45,0,2.77,ZM,1692741464
237,singkil,-7.9855,111.4161,20.05,94,8,2.59,ID,1692741465
238,lata,40.1629,-8.3327,21.83,63,3,0.6,PT,1692741465
239,vlore,40.4667,19.4897,26.05,52,0,1.46,AL,1692741466
240,tual,-5.6667,132.75,25.29,87,89,9.23,ID,1692741467
241,palikir - national government center,6.9248,158.1611,28.47,84,100,1.54,FM,1692741467
242,phu ly,20.5411,105.9139,26.75,88,100,1.52,VN,1692741468
243,hammerfest,70.6634,23.6821,10.25,93,75,2.06,NO,1692741469
244,nardaran,40.5561,50.0056,27.8,78,0,2.06,AZ,1692741470
245,krasnotur'insk,59.7666,60.2086,4.97,95,53,1.73,RU,1692741470
246,puerto baquerizo moreno,-0.9,-89.6,25.55,73,75,5.14,EC,1692741472
247,kati,12.7441,-8.0726,25.67,73,64,2.49,ML,1692741473
248,longyearbyen,78.2186,15.6401,5.91,87,75,3.09,SJ,1692741473
249,flying fish cove,-10.4217,105.6791,23.82,83,75,6.17,CX,1692741474
250,lieksa,63.3167,30.0167,12.58,72,100,2.2,FI,1692741475
251,murghob,38.1702,73.9667,11.12,61,25,2.12,TJ,1692741476
252,quang ngai,15.1167,108.8,24.74,89,41,2.57,VN,1692741478
253,saint-jean-de-monts,46.7833,-2.0667,21.3,64,42,6.62,FR,1692741479
254,vadso,70.0744,29.7487,9.49,93,75,3.09,NO,1692741480
255,deschutes river woods,43.9915,-121.3584,25.07,32,20,1.79,US,1692741480
256,el nido,11.1858,119.3956,27.45,80,100,3.36,PH,1692741481
257,susuman,62.7833,148.1667,3.17,98,100,1.54,RU,1692741481
258,undurkhaan,47.3194,110.6556,7.43,84,82,1.41,MN,1692741483
259,praia,14.9215,-23.5087,28.3,78,75,3.6,CV,1692741484
260,padangsidempuan,1.3667,99.2667,21.41,99,42,0.58,ID,1692741484
261,lensk,60.7253,114.9278,9.54,77,22,1.15,RU,1692741485
262,ati,13.2154,18.3353,31.28,48,20,4.0,TD,1692741486
263,namibe,-15.1961,12.1522,17.17,93,57,3.76,AO,1692741486
264,nuuk,64.1835,-51.7216,8.51,94,100,2.76,GL,1692741487
265,mirante do paranapanema,-22.2919,-51.9064,27.27,38,2,1.27,BR,1692741487
266,jinchang,38.4953,102.1739,18.34,35,19,2.76,CN,1692741488
267,shenjiamen,29.9576,122.298,26.05,88,96,3.51,CN,1692741489
268,whangarei,-35.7317,174.3239,12.11,63,85,2.2,NZ,1692741284
269,san julian,21.0167,-102.1667,24.45,42,13,0.6,MX,1692741490
270,kudahuvadhoo,2.6708,72.8944,28.21,70,83,5.43,MV,1692741491
271,at taj,24.2049,23.2857,30.02,20,0,4.71,LY,1692741492
272,katsuura,35.1333,140.3,27.43,88,41,5.2,JP,1692741492
273,portland,45.5234,-122.6762,25.85,46,75,2.57,US,1692740821
274,dalandzadgad,43.5708,104.425,14.4,41,63,2.55,MN,1692741493
275,remire-montjoly,4.9167,-52.2667,29.02,74,0,4.63,GF,1692741494
276,sardinata,8.0829,-72.8007,33.82,63,99,1.42,CO,1692741495
277,merowe,18.4833,31.8167,36.7,29,82,2.5,SD,1692741495
278,mahanoro,-19.9,48.8,20.55,86,41,1.09,MG,1692741496
279,lorengau,-2.0226,147.2712,25.78,87,100,3.48,PG,1692741497
280,weno,7.4515,151.8468,27.95,76,100,1.88,FM,1692741498
281,zaozersk,69.4005,32.4476,7.56,88,99,1.28,RU,1692741499
282,totskoye,52.5248,52.7623,15.82,71,100,3.93,RU,1692741499
283,cozumel,20.5083,-86.9458,29.41,90,100,1.34,MX,1692741500
284,happy valley-goose bay,53.3168,-60.3315,17.17,51,40,1.54,CA,1692741501
285,ribeira brava,32.65,-17.0667,27.23,74,100,0.89,PT,1692741502
286,high river,50.5834,-113.8687,19.82,78,95,3.04,CA,1692741403
287,callao,-12.0667,-77.15,23.18,73,100,5.14,PE,1692741506
288,port mathurin,-19.6833,63.4167,23.04,76,2,8.82,MU,1692741507
289,fisterra,42.9049,-9.2629,25.42,77,60,1.93,ES,1692741507
290,eirunepe,-6.6603,-69.8736,33.11,37,72,1.01,BR,1692741508
291,ma'rib,15.4591,45.3253,28.19,23,61,1.21,YE,1692741509
292,semey,50.4111,80.2275,21.18,52,81,1.86,KZ,1692741510
293,la ronge,55.1001,-105.2842,20.14,60,75,4.12,CA,1692741511
294,port douglas,-16.4833,145.4667,21.5,78,75,3.7,AU,1692741512
295,fortuna,40.5982,-124.1573,22.18,75,0,7.2,US,1692741513
296,marsa alam,25.0757,34.8918,32.49,45,1,5.59,EG,1692741362
297,mar del plata,-38.0023,-57.5575,12.83,64,0,2.57,AR,1692741364
298,alenquer,-1.9417,-54.7383,29.04,56,70,1.74,BR,1692741514
299,hinna,10.3043,11.4991,29.76,58,68,2.83,NG,1692741515
300,ebon,4.582,168.6964,28.81,69,74,4.1,MH,1692741515
301,utrik,11.2278,169.8474,28.5,74,29,6.2,MH,1692741516
302,isla vista,34.4133,-119.861,31.67,65,0,3.6,US,1692741243
303,sibiti,-3.6819,13.3499,22.75,72,9,1.44,CG,1692741518
304,cutral-co,-38.9469,-69.2089,11.62,10,71,2.24,AR,1692741519
305,chernyshevsk,52.5243,117.0174,11.48,77,100,3.16,RU,1692741519
306,tete,-16.1564,33.5867,24.05,43,0,0.0,MZ,1692741520
307,tolanaro,-25.0319,46.9987,22.04,88,20,10.8,MG,1692741521
308,visakhapatnam,17.69,83.2093,27.72,82,100,3.59,IN,1692741523
309,ciudad pemex,17.9,-92.5,33.34,51,100,3.28,MX,1692741523
310,taco pozo,-25.6167,-63.2833,33.12,18,91,2.66,AR,1692741524
311,barra de santo antonio,-9.4047,-35.5072,23.6,86,23,3.63,BR,1692741524
312,bathsheba,13.2167,-59.5167,30.34,79,40,6.17,BB,1692741525
313,port augusta,-32.5,137.7667,8.19,70,0,1.39,AU,1692741481
314,chom thong,18.4174,98.6743,25.14,95,100,1.58,TH,1692741526
315,loukhi,66.0764,33.0381,9.62,82,100,1.27,RU,1692741527
316,atafu village,-8.5421,-172.5159,28.0,76,4,9.75,TK,1692741528
317,antofagasta,-23.65,-70.4,17.6,78,52,4.03,CL,1692741528
318,praia da vitoria,38.7333,-27.0667,22.14,73,40,5.62,PT,1692741529
319,thunder bay,48.4001,-89.3168,16.99,77,75,7.72,CA,1692741529
320,kachug,53.9606,105.8817,7.98,91,9,0.75,RU,1692741531
321,trinidad,-14.8333,-64.9,34.99,46,20,3.09,BO,1692741531
322,qaqortoq,60.7167,-46.0333,10.56,68,100,2.35,GL,1692741532
323,tanah merah,5.8,102.15,24.92,98,97,0.84,MY,1692741533
324,chernyshevskiy,63.0128,112.4714,5.68,70,88,1.36,RU,1692741533
325,rio gallegos,-51.6226,-69.2181,5.03,75,75,5.66,AR,1692741534
326,iwanai,42.9744,140.5089,26.68,88,24,1.94,JP,1692741535
327,vung tau,10.346,107.0843,26.49,85,99,5.19,VN,1692741536
328,fonte boa,-2.4959,-66.2662,31.08,45,38,1.0,BR,1692741538
329,san juan bautista,-14.0108,-75.7358,24.28,53,8,4.98,PE,1692741538
330,kargat,55.1956,80.2811,13.46,95,89,3.33,RU,1692741539
331,fale old settlement,-9.3852,-171.2468,28.22,73,31,10.31,TK,1692741539
332,desaguadero,-16.5656,-69.0417,12.49,21,14,2.39,PE,1692741540
333,ghormach,35.7306,63.7826,24.78,33,0,1.32,AF,1692741540
334,coxen hole,16.3244,-86.5366,28.6,84,75,5.14,HN,1692741541
335,goba,7.0167,39.9833,11.05,88,88,1.44,ET,1692741542
336,rongelap,11.1635,166.8941,28.95,74,31,7.14,MH,1692741542
337,najafabad,32.6344,51.3668,20.3,18,67,1.11,IR,1692741544
338,tocopilla,-22.092,-70.1979,19.43,73,76,3.62,CL,1692741544
339,goias,-15.5807,-49.6362,29.17,24,17,0.57,BR,1692741366
340,howard springs,-12.497,131.047,19.95,72,78,2.52,AU,1692741546
341,antsiranana,-12.2787,49.2917,22.45,78,8,8.11,MG,1692741546
342,redcliff,-19.0333,29.7833,18.16,22,0,2.54,ZW,1692741547
343,karratha,-20.7377,116.8463,20.19,66,0,3.21,AU,1692741548
344,vernon,50.2581,-119.2691,23.85,66,87,3.13,CA,1692741514
345,qarah zia' od din,38.8915,45.0255,26.48,36,0,2.67,IR,1692741552
346,thinadhoo,0.5333,72.9333,27.88,76,98,6.17,MV,1692741554
347,karyes,37.3,22.5,21.78,35,0,2.49,GR,1692741554
348,mahajanga,-15.7167,46.3167,24.01,60,20,3.09,MG,1692741555
349,gadzhiyevo,69.2551,33.3362,8.18,88,100,0.89,RU,1692741556
350,huai khot,15.2909,99.6166,27.25,83,100,1.47,TH,1692741557
351,kyzylorda,44.8528,65.5092,20.01,52,0,2.0,KZ,1692741558
352,lethem,3.3803,-59.7968,32.03,62,20,5.14,GY,1692741558
353,bam,29.106,58.357,30.39,14,0,5.15,IR,1692741559
354,ishigaki,24.3448,124.1572,26.07,94,96,0.0,JP,1692741560
355,hilo,19.7297,-155.09,27.19,85,100,5.66,US,1692741534
356,taitung city,22.7583,121.1444,26.9,82,99,1.71,TW,1692741561
357,revda,56.801,59.9303,8.44,73,100,0.77,RU,1692741562
358,chinde,26.8418,88.0763,18.6,96,100,1.03,NP,1692741563
359,heroica caborca,30.7167,-112.15,37.38,28,0,5.49,MX,1692741563
360,kurumkan,54.3,110.3,11.34,89,54,0.73,RU,1692741564
361,heihe,50.2441,127.4902,17.32,95,34,2.42,CN,1692741565
362,saldanha,-33.0117,17.9442,13.36,84,93,7.58,ZA,1692741572
363,mili,6.0815,171.735,28.59,73,83,2.43,MH,1692741573
364,ringkobing,56.0901,8.244,16.68,91,19,4.67,DK,1692741573
365,cockburn town,21.4612,-71.1419,28.49,77,16,8.74,TC,1692741452
366,mount gambier,-37.8333,140.7667,9.61,93,90,2.81,AU,1692741488
367,murzuq,25.9155,13.9184,31.0,17,2,1.04,LY,1692741575
368,thompson,55.7435,-97.8558,24.09,43,75,3.09,CA,1692741576
369,hancheng,32.5186,112.3522,22.91,85,2,0.97,CN,1692741576
370,uige,-7.6087,15.0613,21.29,73,16,1.1,AO,1692741577
371,tanumah,27.1,44.1333,32.68,16,1,4.47,SA,1692741578
372,christchurch,-43.5333,172.6333,10.23,81,27,0.51,NZ,1692741065
373,charters towers,-20.1,146.2667,17.74,79,39,3.62,AU,1692741579
374,blantyre,-15.785,35.0085,20.97,30,0,2.08,MW,1692741580
375,byndoor,13.8667,74.6333,25.1,90,91,2.23,IN,1692741581
376,tremonton,41.7119,-112.1655,23.99,80,100,2.68,US,1692741582
377,mitchell,43.7094,-98.0298,45.47,9,2,7.55,US,1692741583
378,muisne,0.6,-80.0333,24.99,84,98,5.39,EC,1692741583
379,bandarbeyla,9.4942,50.8122,25.56,84,53,11.09,SO,1692741585
380,kenai,60.5544,-151.2583,17.05,67,0,1.54,US,1692741585
381,svay rieng,11.0879,105.7993,25.45,87,89,2.86,KH,1692741587
382,qui nhon,13.7667,109.2333,28.04,72,66,3.89,VN,1692741587
383,altai,46.3722,96.2583,10.34,56,88,0.93,MN,1692741588
384,brookings,44.3114,-96.7984,38.19,10,2,7.2,US,1692741428
385,mormugao,15.4,73.8,25.68,86,80,3.39,IN,1692741589
386,klaksvik,62.2266,-6.589,12.51,100,100,1.46,FO,1692741590
387,mengcheng chengguanzhen,33.2661,116.566,22.87,87,0,1.9,CN,1692741590
388,amos,48.5669,-78.1162,20.29,52,99,2.61,CA,1692741342
389,argo,37.6333,22.7333,30.44,31,0,2.41,GR,1692741591
390,sitka,57.0531,-135.33,18.81,66,4,2.97,US,1692741592
391,cidade velha,14.9167,-23.6167,28.26,78,75,3.6,CV,1692741595
392,presidencia roque saenz pena,-26.7852,-60.4388,31.02,28,1,1.43,AR,1692741596
393,neiafu,-18.65,-173.9833,24.38,69,40,3.6,TO,1692741598
394,atar,20.5169,-13.0499,38.03,19,11,0.82,MR,1692741598
395,upington,-28.4478,21.2561,12.21,30,0,3.09,ZA,1692741599
396,togur,58.3631,82.8265,13.42,90,90,2.81,RU,1692741599
397,nova vicosa,-17.8919,-39.3719,24.1,89,37,5.73,BR,1692741372
398,hays,30.0502,-98.0336,31.52,43,99,10.31,US,1692741623
399,baruun-urt,46.6806,113.2792,8.52,88,12,2.79,MN,1692741635
400,santa elena de uairen,4.6167,-61.1333,23.71,69,42,3.18,VE,1692741636
401,korla,41.7597,86.1469,26.96,28,99,2.24,CN,1692741637
402,atasu,48.6814,71.6433,22.18,38,17,1.77,KZ,1692741638
403,anadyr,64.75,177.4833,10.28,87,100,4.0,RU,1692741639
404,hinton,53.4001,-117.5857,17.26,74,100,2.41,CA,1692741643
405,nar'yan-mar,67.6713,53.087,8.05,90,88,4.74,RU,1692741644
406,hadibu,12.65,54.0333,26.9,77,4,6.4,YE,1692741646
407,pisco,-13.7,-76.2167,21.03,73,100,3.09,PE,1692741647
408,sawakin,19.1059,37.3321,35.69,34,27,4.07,SD,1692741648
409,labrador city,52.9463,-66.9114,11.95,58,75,5.14,CA,1692741614
410,bayanaul,50.7889,75.6956,17.78,62,3,1.46,KZ,1692741650
411,jacobabad,28.281,68.4388,31.69,52,5,4.38,PK,1692741652
412,bulancak,40.9372,38.2291,24.07,74,0,2.26,TR,1692741652
413,metlili chaamba,32.2667,3.6333,30.52,27,0,4.63,DZ,1692741654
414,miandrivazo,-19.5167,45.4667,24.77,42,63,0.21,MG,1692741655
415,borisoglebskiy,57.2586,39.1508,13.33,76,100,0.44,RU,1692741656
416,bardai,11.65,7.2333,26.69,62,68,3.99,NG,1692741657
417,igarka,67.4667,86.5833,11.04,94,100,3.28,RU,1692741659
418,mae hong son,19.3003,97.9685,23.87,100,100,0.44,TH,1692741660
419,oyo,7.85,3.9333,22.92,96,99,1.48,NG,1692741661
420,lodwar,3.1191,35.5973,29.77,37,82,8.62,KE,1692741666
421,sabang,5.8933,95.3214,27.79,78,100,5.03,ID,1692741667
422,lepsy,46.235,78.9456,24.59,32,41,2.46,KZ,1692741668
423,waingapu,-9.6567,120.2641,22.42,85,44,4.24,ID,1692741670
424,cooma,-36.2333,149.1333,7.27,90,95,1.58,AU,1692741673
425,sao joao da barra,-21.6403,-41.0511,25.05,88,0,4.83,BR,1692741673
426,puerto armuelles,8.2833,-82.8667,25.05,87,100,1.79,PA,1692741677
427,st. john's,47.5649,-52.7093,17.76,95,100,4.12,CA,1692741679
428,kristiansund,63.1115,7.732,15.36,88,44,1.54,NO,1692741680
429,walvis bay,-22.9575,14.5053,11.72,87,16,1.54,NA,1692741685
430,saint-pierre,-21.3393,55.4781,21.43,78,20,1.54,RE,1692741688
431,eldoret,0.5204,35.2699,14.78,83,67,2.17,KE,1692741693
432,belyy yar,53.6039,91.3903,10.94,93,0,0.0,RU,1692741697
433,howrah,22.5892,88.3103,29.0,89,40,2.57,IN,1692741698
434,sitia,35.2,26.0986,27.21,80,0,2.6,GR,1692741699
435,port saint john's,-31.6229,29.5448,19.57,52,1,1.99,ZA,1692741699
436,moranbah,-22.0016,148.0466,17.47,71,2,4.47,AU,1692741700
437,kovdor,67.5662,30.4758,11.16,72,100,1.79,RU,1692741702
438,lewiston orchards,46.3804,-116.9754,23.48,66,75,2.06,US,1692741703
439,kuta,-8.7233,115.1723,25.0,83,20,5.81,ID,1692741704
440,afaahiti,-17.75,-149.2833,24.93,62,28,2.99,PF,1692741704
441,huicungo,-7.2833,-76.8,33.55,39,98,0.46,PE,1692741705
442,brigantine,39.4101,-74.3646,24.55,60,0,5.66,US,1692741706
443,tamanrasset,22.785,5.5228,28.95,26,40,2.57,DZ,1692741709
444,san juan de miraflores,-12.1629,-76.9635,22.32,76,62,3.83,PE,1692741710
445,trubchevsk,52.5798,33.7644,14.08,91,49,3.11,RU,1692741711
446,taroa,8.7058,171.2275,27.59,79,97,7.4,MH,1692741711
447,grand baie,-20.0182,57.5802,23.03,77,29,0.45,MU,1692741679
448,kafir qala,34.6667,61.0667,25.22,26,0,5.22,AF,1692741712
449,luganville,-15.5333,167.1667,24.59,83,97,6.39,VU,1692741714
450,ilhabela,-23.7781,-45.3581,21.93,77,0,2.3,BR,1692741715
451,'ali al gharbi,32.4633,46.6864,38.9,10,0,3.59,IQ,1692741715
452,anqing,30.5092,117.0506,23.37,94,0,1.6,CN,1692741716
453,talata mafara,12.5732,6.0597,30.38,54,29,2.34,NG,1692741717
454,kilmore,-37.3,144.95,5.94,88,63,0.59,AU,1692741718
455,conde,-7.2597,-34.9075,24.7,88,75,3.09,BR,1692741719
456,asau,46.4333,26.4,21.51,65,20,0.33,RO,1692741719
457,daltonganj,24.0333,84.0667,25.37,93,100,1.27,IN,1692741634
458,celestun,20.8667,-90.4,30.33,69,90,6.61,MX,1692741721
459,freeport,40.6576,-73.5832,27.27,47,60,2.68,US,1692741614
460,mount pearl,47.5166,-52.7813,17.3,95,100,4.12,CA,1692741722
461,el granada,37.5027,-122.4694,32.18,69,0,8.23,US,1692741723
462,smithers,54.7804,-127.1743,24.18,31,0,1.03,CA,1692741553
463,hassi messaoud,31.6804,6.0729,32.92,24,0,2.57,DZ,1692741725
464,zheleznogorsk-ilimskiy,56.5768,104.1217,9.5,91,54,0.95,RU,1692741727
465,elliot lake,46.3834,-82.6331,21.75,45,81,3.28,CA,1692741728
466,tianpeng,30.9866,103.9393,24.26,81,3,1.85,CN,1692741728
467,kara-balta,42.8142,73.8481,22.03,31,5,2.53,KG,1692741729
468,glace bay,46.1969,-59.957,19.32,73,75,5.14,CA,1692741730
469,qandala,11.472,49.8728,32.73,52,22,1.6,SO,1692741731
470,tekirova,36.5017,30.5272,28.32,55,0,1.84,TR,1692741732
471,magadan,59.5667,150.8,14.3,68,11,2.44,RU,1692741732
472,bianzhuang,34.8486,118.0447,19.94,77,0,2.37,CN,1692741734
473,caleta de carquin,-11.0925,-77.6267,20.88,78,58,4.4,PE,1692741734
474,al khawr,25.7667,51.3167,33.1,52,0,3.6,QA,1692741735
475,chegdomyn,51.1167,133.0167,16.37,96,100,0.71,RU,1692741735
476,funafuti,-8.5243,179.1942,30.0,84,75,7.72,TV,1692741736
477,kifri,34.6959,44.9661,36.61,12,0,1.77,IQ,1692741738
478,dodola,6.9833,39.1833,12.31,90,98,0.65,ET,1692741738
479,santa cruz,-17.8,-63.1667,32.03,51,20,11.83,BO,1692741739
480,qarazhal,48.0078,70.7903,25.75,28,79,3.08,KZ,1692741740
481,kavaratti,10.5669,72.642,27.75,76,89,4.87,IN,1692741741
482,andergrove,-21.0833,149.1833,18.69,85,78,4.89,AU,1692741742
483,kerikeri,-35.2268,173.9474,12.73,89,85,0.45,NZ,1692741744
484,cody,44.5263,-109.0565,32.24,28,20,2.68,US,1692741583
485,okhotsk,59.3833,143.3,14.75,82,80,4.03,RU,1692741745
486,sarpol-e zahab,34.4611,45.8626,33.25,15,0,2.12,IR,1692741746
487,angaur state,6.906,134.13,27.58,80,30,3.87,PW,1692741747
488,smolensk,55.0,33.0,14.33,95,85,2.62,RU,1692741748
489,machico,32.7,-16.7667,27.23,77,20,1.54,PT,1692741748
490,yamethin,20.4333,96.15,23.15,97,99,2.53,MM,1692741749
491,orcopampa,-15.2661,-72.3417,13.77,20,41,4.12,PE,1692741751
492,sinop,41.7711,34.8709,21.13,39,0,2.02,TR,1692741729
493,kalmunai,7.4167,81.8167,25.84,88,89,4.55,LK,1692741752
494,nuku'alofa,-21.1333,-175.2,22.19,56,40,3.09,TO,1692741755
495,filingue,14.3521,3.3168,35.28,36,11,1.65,NE,1692741757
496,zhangjiajie,29.1294,110.4783,22.84,96,1,0.72,CN,1692741757
497,laguna,38.421,-121.4238,33.43,40,0,4.12,US,1692741758
498,chonchi,-42.6128,-73.8092,5.56,89,97,2.15,CL,1692741759
499,kitob,39.0843,66.8332,24.66,29,0,0.97,UZ,1692741761
500,sur,22.5667,59.5289,30.12,61,65,3.56,OM,1692741762
501,extrema,-22.8547,-46.3183,19.34,40,0,2.03,BR,1692741763
502,tavricheskoye,54.5851,73.6395,10.95,69,49,3.37,RU,1692741764
503,fangshan,39.6983,115.9925,21.48,77,0,1.54,CN,1692741766
504,kerema,-7.9631,145.7785,25.07,91,69,0.85,PG,1692741767
505,san luis de la loma,17.2706,-100.8939,30.09,71,58,2.42,MX,1692741768
506,keminmaa,65.8596,24.8228,14.87,88,0,2.57,FI,1692741768
507,kourou,5.1552,-52.6478,29.03,83,24,5.29,GF,1692741769
508,iquique,-20.2208,-70.1431,19.02,88,83,3.9,CL,1692741652
509,tranqueras,-31.2,-55.75,18.28,90,5,4.0,UY,1692741770
510,zhangye,38.9342,100.4517,17.53,38,6,2.35,CN,1692741771
511,badger,64.8,-147.5333,16.66,72,100,2.57,US,1692741771
512,yuzhno-kurilsk,44.0306,145.8556,21.41,96,100,3.69,RU,1692741773
513,allen,41.0706,-85.0144,27.86,55,0,1.54,US,1692741774
514,jianshui,23.6363,102.8264,19.43,95,100,1.0,CN,1692741775
515,bridgewater,44.3835,-64.5155,22.84,51,22,5.14,CA,1692741776
516,lagoa,39.05,-27.9833,20.94,65,100,5.89,PT,1692741776
517,nabatiye et tahta,33.3789,35.4839,25.29,86,0,1.54,LB,1692741777
518,udachny,66.4167,112.4,3.03,93,4,0.83,RU,1692741778
519,elkins,38.9259,-79.8467,26.23,58,0,4.12,US,1692741779
520,pyshma,56.9523,63.2513,10.41,60,97,1.8,RU,1692741779
521,khovd,48.0056,91.6419,14.72,58,1,0.65,MN,1692741782
522,forster,-32.1667,152.5167,16.83,68,24,4.28,AU,1692741784
523,araguaina,-7.1911,-48.2072,29.04,49,67,1.57,BR,1692741786
524,pascagoula,30.3658,-88.5561,38.4,48,0,2.06,US,1692741564
525,leava,-14.3,-178.1667,26.87,76,20,10.58,WF,1692741787
526,saint-philippe,-21.3585,55.7679,20.77,84,38,7.05,RE,1692741788
527,lospalos,-8.5186,127.0025,19.62,88,18,2.43,TL,1692741789
528,matadi,-5.8167,13.45,24.47,79,61,2.86,CD,1692741790
529,soligalich,59.0778,42.2864,7.47,81,62,1.72,RU,1692741791
530,aliveri,38.4167,24.0333,30.23,53,0,4.37,GR,1692741746
531,rupert,42.6191,-113.6772,26.21,41,99,1.54,US,1692741792
532,sambava,-14.2667,50.1667,20.64,87,3,4.31,MG,1692741793
533,caxito,-8.5785,13.6643,22.29,88,65,2.2,AO,1692741794
534,grand falls-windsor,48.9332,-55.6649,18.61,82,100,0.45,CA,1692741795
535,robore,-18.3333,-59.75,33.82,22,8,3.38,BO,1692741796
536,jipijapa,-1.3333,-80.5833,25.72,80,100,2.9,EC,1692741797
537,embi,48.8264,58.1442,23.01,48,96,4.16,KZ,1692741797
538,teknaf,20.8624,92.3058,26.06,87,100,1.93,BD,1692741798
539,abra pampa,-22.7205,-65.697,13.17,4,82,5.49,AR,1692741799
540,selkirk,50.1436,-96.8845,21.72,76,100,0.89,CA,1692741731
541,abashiri,44.0213,144.2697,24.97,85,0,3.35,JP,1692741801
542,sao jose da coroa grande,-8.8978,-35.1478,24.72,81,63,3.81,BR,1692741802
543,shimoda,34.6667,138.95,26.72,84,93,2.47,JP,1692741803
544,anupgarh,29.1911,73.2086,36.96,33,100,9.09,IN,1692741803
545,kibakwe,-6.7167,36.3667,17.42,79,0,2.23,TZ,1692741804
546,pindiga,9.9833,10.9333,25.26,76,50,2.6,NG,1692741805
547,santa ana,33.7456,-117.8678,36.34,53,20,5.14,US,1692741776
548,bayanhongor,46.7167,100.1167,3.87,87,14,0.6,MN,1692741807
549,comandante fontana,-25.3345,-59.6821,32.57,24,1,2.58,AR,1692741808
550,nadym,65.5333,72.5167,11.11,69,100,2.96,RU,1692741809
551,oum hadjer,13.2954,19.6966,30.33,54,63,4.08,TD,1692741810
552,dazuocun,24.8862,118.9643,26.52,83,99,2.87,CN,1692741811
553,newport,51.5877,-2.9984,17.12,88,58,3.03,GB,1692741812
554,ciudad bolivar,8.1222,-63.5497,32.82,46,41,3.15,VE,1692741813
555,tamandare,-8.7597,-35.1047,24.94,81,88,3.53,BR,1692741813
556,puerto leguizamo,-0.1934,-74.7819,26.35,87,95,1.71,CO,1692741814
557,popondetta,-8.7537,148.2534,25.23,84,99,0.43,PG,1692741815
558,shohimardon,39.9839,71.8028,18.43,36,3,2.75,UZ,1692741816
